     3.02           OBSERVATION DATA    M: MIXED            RINEX VERSION / TYPE
HEADER CHANGED BY EPN CB ON 2021-01-09                      COMMENT
TO BE CONFORM WITH THE INFORMATION IN                       COMMENT
ftp://epncb.oma.be/pub/station/log/wroc.log                 COMMENT
                                                            COMMENT
GR50 V4.31          IGG of WUELS        20210101 235953 UTC PGM / RUN BY / DATE
SNR is mapped to RINEX snr flag value [1-9]                 COMMENT
LX:     < 12dBHz -> 1; 12-17dBHz -> 2; 18-23dBHz -> 3       COMMENT
       24-29dBHz -> 4; 30-35dBHz -> 5; 36-41dBHz -> 6       COMMENT
       42-47dBHz -> 7; 48-53dBHz -> 8; >= 54dBHz -> 9       COMMENT
WROC                                                        MARKER NAME
12217M001                                                   MARKER NUMBER
Jan Sierny          IGG of WUELS                            OBSERVER / AGENCY
1830242             LEICA GR50          4.31/7.403          REC # / TYPE / VERS
725270              LEIAR25.R4      LEIT                    ANT # / TYPE
  3835751.6257  1177249.7445  4941605.0540                  APPROX POSITION XYZ
        0.0000        0.0000        0.0000                  ANTENNA: DELTA H/E/N
G   16 C1C L1C D1C S1C C2S L2S D2S S2S C2W L2W D2W S2W C5Q  SYS / # / OBS TYPES
       L5Q D5Q S5Q                                          SYS / # / OBS TYPES
R   12 C1C L1C D1C S1C C2P L2P D2P S2P C2C L2C D2C S2C      SYS / # / OBS TYPES
E   16 C1C L1C D1C S1C C5Q L5Q D5Q S5Q C7Q L7Q D7Q S7Q C8Q  SYS / # / OBS TYPES
       L8Q D8Q S8Q                                          SYS / # / OBS TYPES
C    8 C1I L1I D1I S1I C7I L7I D7I S7I                      SYS / # / OBS TYPES
J   12 C1C L1C D1C S1C C2S L2S D2S S2S C5Q L5Q D5Q S5Q      SYS / # / OBS TYPES
S    4 C1C L1C D1C S1C                                      SYS / # / OBS TYPES
DBHZ                                                        SIGNAL STRENGTH UNIT
    30.000                                                  INTERVAL
  2021    01    02    00    00    0.0000000     GPS         TIME OF FIRST OBS
  2021    01    02    23    59   30.0000000     GPS         TIME OF LAST OBS
     0                                                      RCV CLOCK OFFS APPL
G L2S -0.25000                                              SYS / PHASE SHIFT
G L2X -0.25000                                              SYS / PHASE SHIFT
R L2P  0.25000                                              SYS / PHASE SHIFT
E L8Q -0.25000                                              SYS / PHASE SHIFT
 24 R01  1 R02 -4 R03  5 R04  6 R05  1 R06 -4 R07  5 R08  6 GLONASS SLOT / FRQ #
    R09 -2 R10 -7 R11  0 R12 -1 R13 -2 R14 -7 R15  0 R16 -1 GLONASS SLOT / FRQ #
    R17  4 R18 -3 R19  3 R20  2 R21  4 R22 -3 R23  3 R24  2 GLONASS SLOT / FRQ #
 C1C  -71.940 C1P  -71.940 C2C  -71.940 C2P  -71.940        GLONASS COD/PHS/BIS
    18    18  1929     7                                    LEAP SECONDS
                                                            END OF HEADER
> 2021 01 02 00 00  0.0000000  0 44
G07  24974115.315   131239862.14707     -1027.267          43.550    24974115.271   102264836.91006      -800.471          39.600    24974115.059   102264825.91106      -800.471          36.650
G08  22382181.775   117619168.72408      2809.360          49.150    22382185.269    91651312.59807      2189.111          47.950    22382184.585    91651305.59708      2189.111          49.050    22382182.427    87832498.15208      2097.923          51.800
G10  21029879.139   110512774.16008      1503.666          53.250    21029882.080    86113865.17908      1171.688          51.750    21029882.278    86113852.16908      1171.688          53.150    21029879.383    82525773.05009      1122.916          54.700
G11  24805574.589   130354180.11306      3608.588          41.950                                                                    24805574.785   101574693.09906      2811.892          37.150
G13  25046802.738   131621854.20606     -1371.018          40.250                                                                    25046802.604   102562485.88905     -1068.321          34.350
G15  23700585.741   124547430.08507      -513.518          46.250    23700586.777    97049954.25207      -400.144          42.600    23700586.393    97049957.24807      -400.145          45.950
G16  21992170.831   115569642.33508     -2760.993          49.700                                                                    21992170.994    90054251.99607     -2151.424          44.550
G20  20895811.658   109808243.52508     -1051.260          48.350                                                                    20895811.854    85564875.35907      -819.165          46.800
G21  24356002.124   127991638.20407      2830.011          43.700                                                                    24356003.361    99733756.73706      2205.202          37.650
G23  20954718.190   110117794.85208      -785.548          48.000    20954719.417    85806091.51708      -612.117          52.400    20954719.282    85806084.50907      -612.116          47.950    20954721.892    82230847.17309      -586.595          54.400
G26  24032384.336   126291029.56107     -3658.395          44.550    24032388.075    98408604.27307     -2850.699          43.800    24032388.007    98408597.26907     -2850.699          44.550    24032386.168    94308239.71007     -2731.949          46.500
G27  20294279.439   106647182.64708       716.902          52.800    20294282.020    83101718.41108       558.625          53.050    20294281.647    83101715.41108       558.625          52.800    20294280.279    79639150.86209       535.375          55.900
G30  25365324.759   133295686.43606       316.687          41.800    25365327.181   103866777.05107       246.770          42.450    25365326.749   103866773.04706       246.772          38.300    25365325.677    99538983.73707       236.504          45.250
R02  21085642.020   112517043.85308     -1485.199          51.850    21085641.956    87513258.87607     -1155.153          45.400    21085641.976    87513265.89707     -1155.154          45.700
R03  20782434.975   111250006.39408      2576.992          51.100    20782432.911    86527777.72507      2004.327          47.200    20782433.038    86527792.74307      2004.328          47.150
R04  23634409.557   126561206.33007      4609.864          44.150    23634407.596    98436472.10606      3585.449          38.650    23634407.679    98436475.12106      3585.450          38.350
R09  21400895.142   114279580.16108     -1271.662          48.650    21400892.952    88884102.05507      -989.072          46.900    21400893.086    88884103.05707      -989.072          47.150
R10  22728680.564   121156657.28207      2185.180          42.700
R16  22997485.367   122848412.64807     -4058.041          42.700    22997485.003    95548761.61706     -3156.254          37.950    22997484.212    95548755.59906     -3156.255          39.050
R17  22510501.593   120458256.15308     -3259.987          48.900    22510500.103    93689731.13507     -2535.546          42.550    22510500.156    93689733.16407     -2535.545          44.150
R18  19624018.924   104754367.03908      -979.747          50.000    19624018.907    81475622.76808      -762.025          48.900    19624018.937    81475629.77308      -762.026          48.700
R19  20353448.172   108877242.58506      2092.186          39.250    20353445.715    84682300.50107      1627.256          45.600    20353446.027    84682301.49907      1627.256          46.700
E02  25045437.199   131614646.95648     -1781.081          51.000    25045440.237    98283666.14808     -1329.970          50.850    25045437.360   100847575.92808     -1364.695          51.550    25045438.580    99565622.78008     -1347.309          53.850
E04  26156860.830   137455238.90948      1045.021          49.300    26156863.405   102645167.10108       780.413          48.350    26156860.723   105322855.18208       800.754          48.700    26156861.849   103984007.38208       790.557          51.150
E09  25279403.396   132844162.41547      2946.590          47.600    25279407.123    99201821.29907      2200.467          43.350    25279404.737   101789685.47907      2257.792          45.650    25279405.694   100495753.63107      2229.080          47.050
E11  22680911.850   119189007.09348     -1778.351          50.550    22680911.626    89004786.71408     -1328.085          48.250    22680909.023    91326640.78808     -1362.733          49.300    22680910.201    90165716.99208     -1345.393          51.550
E19  27780816.538   145989194.31046     -1672.775          40.100    27780818.176   109017914.59706     -1249.058          37.050    27780815.408   111861852.22906     -1281.505          37.850    27780816.476   110439882.66306     -1265.375          40.250
E25  27539361.374   144720317.31347     -3254.087          44.850    27539365.686   108070385.25907     -2430.011          44.000    27539362.819   110889601.22407     -2493.264          44.350    27539363.941   109479991.47707     -2461.545          46.850
E30  24945924.812   131091712.84348       959.417          49.850    24945927.763    97893168.90608       716.501          48.550    24945925.019   100446896.50108       735.226          49.400    24945926.192    99170033.94608       725.848          51.650
E36  23269140.821   122280182.47848       547.554          52.550    23269144.673    91313150.96808       408.882          53.150    23269142.122    93695216.93809       419.535          54.600    23269143.231    92504184.19709       414.184          56.550
C02  40766643.934   212282611.45906        -3.143          37.700    40766636.333   164150364.56106        -2.748          40.250
C05  39534859.591   205868400.33807         2.813          42.750    39534854.422   159190465.28207         2.350          42.600
C06  40305096.611   209879220.51406      1480.090          38.100    40305090.803   162291907.03106      1144.565          41.150
C09  40577591.916   211298171.35207      2021.824          43.100    40577588.415   163389132.36206      1563.455          40.200
C13  39756242.177   207021195.29306      -937.596          40.050    39756243.073   160081927.31506      -724.994          41.800
C16  40169132.293   209171216.13606      1615.871          40.600    40169131.830   161744453.79006      1249.441          40.650
C20  23741931.980   123630472.58108      2605.074          51.800
C24  27094632.555   141088860.10807      1844.183          43.100
C26  24957756.492   129961580.43007      -428.158          45.850
C29  21584953.287   112398554.13508       731.807          51.850
C30  22919130.113   119345915.39408     -2116.985          52.400
J01  44343328.782   233025768.18707      -205.859          42.250    44343329.877   181578522.52206      -160.410          38.250    44343330.576   174012753.73206      -153.607          41.550
S23  38618458.169   202941351.80208         2.063          48.700
S36  38572852.422   202701758.42107         1.467          47.100
> 2021 01 02 00 00 30.0000000  0 44
G07  24980021.573   131270899.70507     -1042.844          44.350    24980021.507   102289022.01706      -812.602          38.800    24980021.296   102289011.01106      -812.603          36.600
G08  22366163.559   117534992.42208      2801.609          48.400    22366167.037    91585720.68308      2183.073          48.850    22366166.342    91585713.68108      2183.073          48.050    22366164.206    87769639.21808      2092.062          51.750
G10  21021342.635   110467914.55709      1486.051          54.100    21021345.556    86078909.66208      1157.962          51.550    21021345.755    86078896.65609      1157.962          54.150    21021342.865    82492274.01709      1109.775          54.900
G11  24784972.826   130245917.13507      3607.988          43.600                                                                    24784973.007   101490332.34705      2811.419          34.850
G13  25054677.254   131663235.11306     -1388.793          41.500                                                                    25054677.129   102594730.76405     -1082.177          35.000
G15  23703572.414   124563125.09907      -533.743          47.200    23703573.419    97062184.15607      -415.904          42.350    23703573.033    97062187.14407      -415.904          47.050
G16  22007969.567   115652665.33008     -2774.685          50.650                                                                    22007969.744    90118945.24507     -2162.091          44.700
G20  20901861.067   109840033.47308     -1068.887          49.200                                                                    20901861.268    85589646.75307      -832.899          46.850
G21  24339855.207   127906785.80807      2825.829          44.950                                                                    24339856.410    99667638.02306      2201.946          36.200
G23  20959256.130   110141641.92508      -804.897          49.350    20959257.359    85824673.66208      -627.192          51.800    20959257.222    85824666.64907      -627.193          47.750    20959259.834    82248655.06109      -601.083          54.500
G26  24053276.705   126400819.56607     -3661.784          44.750    24053280.462    98494154.90307     -2853.340          43.500    24053280.399    98494147.90007     -2853.341          44.700    24053278.545    94390225.70707     -2734.335          47.000
G27  20290229.324   106625899.10308       701.291          52.850    20290231.896    83085133.82608       546.460          53.050    20290231.522    83085130.82508       546.461          52.850    20290230.156    79623257.30309       523.657          55.950
G30  25363565.209   133286439.96307       299.171          42.900    25363567.656   103859572.00306       233.120          40.800    25363567.231   103859567.99206       233.118          38.600    25363566.168    99532078.91007       223.231          46.150
R02  21094061.933   112561974.02608     -1510.917          52.000    21094061.848    87548204.58707     -1175.156          45.600    21094061.864    87548211.59607     -1175.156          45.250
R03  20768051.674   111173011.53708      2554.942          50.500    20768049.614    86467892.85407      1987.179          47.400    20768049.742    86467907.86007      1987.179          47.750
R04  23608585.569   126422919.97807      4608.350          44.800    23608583.593    98328916.04206      3584.273          39.000    23608583.681    98328919.05306      3584.273          39.150
R09  21408109.297   114318103.29708     -1297.248          50.350    21408107.152    88914064.47807     -1008.971          46.750    21408107.270    88914065.46707     -1008.970          46.750
R10  22716444.621   121091432.61807      2162.213          44.200
R16  23020293.487   122970249.34707     -4065.401          43.300    23020293.142    95643523.48106     -3161.978          38.350    23020292.345    95643517.46006     -3161.978          39.600
R17  22528789.601   120556118.86908     -3265.061          50.000    22528788.122    93765846.57907     -2539.492          42.400    22528788.166    93765848.59007     -2539.490          42.200
R18  19629560.058   104783946.02108      -993.036          49.450    19629560.062    81498628.62708      -772.361          48.900    19629560.094    81498635.63508      -772.361          48.650
R19  20341739.547   108814609.39706      2082.220          38.900    20341737.080    84633585.80707      1619.505          45.700    20341737.394    84633586.81307      1619.505          46.800
E02  25055638.101   131668252.92848     -1793.493          51.450    25055641.146    98323696.55008     -1339.293          50.950    25055638.271   100888650.60308     -1374.213          51.400    25055639.485    99606175.32208     -1356.737          53.850
E04  26150931.525   137424080.31448      1031.393          50.150    26150934.101   102621899.34608       770.206          48.150    26150931.412   105298980.44308       790.369          48.650    26150932.538   103960436.13508       780.319          51.050
E09  25262589.671   132755805.59648      2943.036          48.300    25262593.396    99135840.53007      2197.712          43.650    25262591.016   101721983.46907      2255.062          45.600    25262591.969   100428912.24207      2226.382          47.250
E11  22691076.669   119242423.53348     -1783.150          51.300    22691076.453    89044675.60808     -1331.688          48.300    22691073.843    91367570.26208     -1366.363          49.100    22691075.021    90206126.17808     -1349.039          51.450
E19  27790396.570   146039537.81646     -1684.533          40.550    27790398.193   109055508.78906     -1258.062          37.150    27790395.441   111900427.15006     -1290.860          37.850    27790396.505   110477967.20806     -1274.322          40.300
E25  27557939.332   144817945.01647     -3255.387          45.750    27557943.651   108143289.03807     -2430.956          43.850    27557940.789   110964406.83907     -2494.353          44.500    27557941.905   109553846.18507     -2462.721          46.750
E30  24940485.906   131063131.23248       945.109          50.200    24940488.883    97871825.50108       705.786          48.550    24940486.116   100424996.31608       724.183          49.300    24940487.281    99148412.15408       714.944          51.600
E36  23266033.655   122263854.18348       540.325          53.300    23266037.493    91300957.76508       403.442          53.250    23266034.947    93682705.64909       414.006          54.550    23266036.059    92491831.95309       408.726          56.600
C02  40766660.493   212282697.68406        -3.160          38.400    40766652.902   164150431.22606        -2.682          40.000
C05  39534840.680   205868301.94707         3.092          43.200    39534835.503   159190389.22207         2.209          42.550
C06  40296578.779   209834866.08406      1475.834          37.350    40296572.977   162257609.37506      1141.267          41.350
C09  40565945.428   211237525.03807      2020.389          43.650    40565941.925   163342236.78206      1562.403          39.700
C13  39761639.266   207049299.27606      -936.913          41.100    39761640.153   160103659.07506      -724.434          41.500
C16  40159833.031   209122792.51006      1611.691          41.250    40159832.554   161707009.57206      1246.147          40.850
C20  23726953.599   123552476.24308      2593.859          52.400
C24  27084043.109   141033718.06507      1831.239          43.200
C26  24960267.983   129974660.92607      -444.441          47.600
C29  21580764.234   112376741.04308       721.601          52.200
C30  22931345.775   119409524.99508     -2124.560          53.000
J01  44344501.718   233031931.97007      -205.754          43.100    44344502.792   181583325.47106      -160.327          38.950    44344503.514   174017356.56106      -153.622          41.800
S23  38618444.156   202941278.07508         2.270          49.150
S36  38572841.534   202701701.96107         1.464          47.550
> 2021 01 02 00 01  0.0000000  0 44
G07  24986016.003   131302400.66407     -1057.480          44.950    24986015.908   102313568.24506      -824.009          39.450    24986015.701   102313557.23106      -824.010          38.750
G08  22350190.344   117451052.55308      2794.262          49.350    22350193.827    91520312.97508      2177.344          48.700    22350193.130    91520305.97508      2177.345          49.400    22350191.004    87706956.83708      2086.570          52.000
G10  21012906.279   110423581.27808      1469.167          53.550    21012909.185    86044364.26008      1144.806          52.150    21012909.384    86044351.25808      1144.806          53.600    21012906.504    82459168.02009      1097.084          54.950
G11  24764375.017   130137675.23507      3607.717          43.850                                                                    24764375.185   101405988.08805      2811.215          34.900
G13  25062653.875   131705152.33906     -1406.125          40.900                                                                    25062653.758   102627393.49905     -1095.687          32.700
G15  23706676.122   124579435.10607      -553.854          47.250    23706677.084    97074893.26607      -431.574          42.850    23706676.700    97074896.26007      -431.574          47.300
G16  22023846.504   115736099.27008     -2787.698          50.700                                                                    22023846.695    90183958.71307     -2172.233          45.100
G20  20908012.045   109872357.19108     -1086.159          49.250                                                                    20908012.256    85614834.07207      -846.357          46.650
G21  24323732.908   127822062.61007      2822.068          44.800                                                                    24323734.073    99601619.94206      2199.013          36.250
G23  20963904.678   110166070.20708      -823.754          49.600    20963905.900    85843708.68608      -641.885          51.900    20963905.765    85843701.67808      -641.886          48.400    20963908.377    82266896.96609      -615.178          54.400
G26  24074186.475   126510701.21007     -3664.092          44.100    24074190.237    98579776.96607     -2855.137          43.550    24074190.176    98579769.96707     -2855.137          44.050    24074188.317    94472280.19307     -2736.145          46.000
G27  20286268.671   106605085.67308       686.052          52.850    20286271.241    83068915.56708       534.586          53.600    20286270.864    83068912.56408       534.586          52.850    20286269.500    79607714.79709       512.299          56.000
G30  25361906.683   133277724.31407       281.941          43.350    25361909.139   103852780.58606       219.694          40.600    25361908.719   103852776.57506       219.695          38.550    25361907.664    99525570.45507       210.327          45.250
R02  21102626.523   112607676.14608     -1536.111          53.550    21102626.423    87583750.67607     -1194.752          45.200    21102626.433    87583757.67707     -1194.753          45.000
R03  20753792.859   111096683.14108      2533.307          51.400    20753790.800    86408526.33307      1970.349          47.600    20753790.935    86408541.35207      1970.350          47.700
R04  23582771.482   126284686.71407      4607.079          46.350    23582769.474    98221401.30906      3583.285          39.300    23582769.564    98221404.31406      3583.286          39.900
R09  21415467.343   114357394.85208     -1322.358          50.600    21415465.217    88944624.55907     -1028.501          46.600    21415465.331    88944625.56007     -1028.500          47.050
R10  22704337.867   121026896.47107      2139.951          44.900
R16  23043142.744   123092305.99307     -4071.981          43.100    23043142.413    95738456.42906     -3167.094          37.500    23043141.617    95738450.42906     -3167.091          38.650
R17  22547106.151   120654134.27708     -3269.571          49.650    22547104.684    93842080.75607     -2543.001          42.000    22547104.727    93842082.75907     -2543.002          42.850
R18  19635176.107   104813924.95108     -1005.863          51.050    19635176.124    81521945.56808      -782.338          49.050    19635176.158    81521952.56808      -782.340          48.400
R19  20330088.407   108752283.64906      2072.827          39.800    20330085.932    84585110.22607      1612.199          45.950    20330086.252    84585111.23307      1612.199          46.850
E02  25065909.720   131722230.57948     -1805.276          51.250    25065912.774    98364004.51608     -1348.106          50.950    25065909.902   100930010.08708     -1383.281          51.150    25065911.109    99647009.04608     -1365.682          53.900
E04  26145080.291   137393331.94148      1018.236          50.200    26145082.869   102598937.91108       760.347          48.450    26145080.176   105275420.00608       780.271          48.600    26145081.303   103937175.20408       770.279          51.350
E09  25245796.915   132667558.95948      2939.805          48.100    25245800.638    99069942.03707      2195.243          43.750    25245798.264   101654365.88607      2252.552          45.650    25245799.218   100362154.20807      2223.831          47.400
E11  22701268.611   119295982.47148     -1787.765          51.000    22701268.394    89084670.90808     -1334.924          48.250    22701265.782    91408608.92108     -1369.772          49.100    22701266.960    90246643.16008     -1352.368          51.550
E19  27800044.518   146090238.21946     -1695.857          41.000    27800046.134   109093369.49006     -1266.246          37.800    27800043.400   111939275.53206     -1299.379          37.500    27800044.464   110516321.76606     -1282.917          40.500
E25  27576524.319   144915609.74047     -3255.986          44.850    27576528.637   108216220.47907     -2431.286          42.700    27576525.779   111039240.84207     -2494.799          44.800    27576526.892   109627728.90807     -2463.074          46.400
E30  24935128.904   131034979.97248       931.223          50.200    24935131.909    97850803.44208       695.458          48.400    24935129.131   100403425.85308       713.620          49.550    24935130.278    99127115.89008       704.541          51.750
E36  23262967.596   122247741.88248       533.608          52.850    23262971.418    91288925.85508       398.480          53.300    23262968.881    93670359.86409       408.893          54.450    23262969.990    92479643.10309       403.701          56.650
C02  40766677.479   212282786.05506        -2.812          37.600    40766669.910   164150499.53106        -2.108          40.300
C05  39534822.499   205868207.23307         3.164          42.550    39534817.319   159190315.97507         2.583          42.550
C06  40288084.331   209790633.51906      1472.401          36.250    40288078.553   162223405.96506      1138.698          41.150
C09  40554307.815   211176924.86907      2019.215          42.900    40554304.304   163295376.86806      1561.537          39.700
C13  39767032.568   207077383.55906      -935.768          39.500    39767033.441   160125375.60506      -723.577          41.500
C16  40150558.452   209074497.45406      1607.819          40.050    40150557.959   161669664.79206      1243.301          40.950
C20  23712040.167   123474818.01008      2583.152          51.600
C24  27073528.429   140978965.70607      1818.833          43.750
C26  24962873.904   129988231.59707      -460.337          46.750
C29  21576634.083   112355234.54108       711.923          51.850
C30  22943605.475   119473364.01108     -2131.613          52.150
J01  44345675.416   233038099.79407      -205.298          42.850    44345676.460   181588131.57006      -159.973          39.000    44345677.208   174021962.42306      -153.451          41.550
S23  38618430.135   202941204.19208         2.512          49.200
S36  38572830.222   202701643.43007         2.397          47.250
> 2021 01 02 00 01 30.0000000  0 44
G07  24992098.662   131334364.96307     -1073.811          43.900    24992098.543   102338475.45606      -836.738          40.050    24992098.335   102338464.44406      -836.739          38.600
G08  22334262.631   117367352.03008      2785.447          49.050    22334266.104    91455091.82708      2170.480          48.850    22334265.397    91455084.82008      2170.479          48.950    22334263.276    87644453.19008      2080.003          51.600
G10  21004570.579   110379776.84308      1450.794          53.750    21004573.497    86010230.96308      1130.491          51.100    21004573.696    86010217.95508      1130.491          53.700    21004570.820    82426456.89809      1083.304          54.750
G11  24743781.660   130029456.72607      3606.351          42.850                                                                    24743781.824   101321662.05005      2810.145          33.400
G13  25070732.504   131747605.90306     -1424.791          41.100                                                                    25070732.357   102660474.24105     -1110.228          33.800
G15  23709897.151   124596361.62807      -575.187          47.050    23709898.071    97088082.79406      -448.197          41.800    23709897.684    97088085.78007      -448.197          47.250
G16  22039801.408   115819942.90108     -2802.146          50.500                                                                    22039801.608    90249291.42007     -2183.492          44.200
G20  20914264.626   109905214.83408     -1104.678          49.200                                                                    20914264.836    85640437.44707      -860.787          46.100
G21  24307635.547   127737470.55107      2817.046          45.600                                                                    24307636.673    99535704.07706      2195.101          37.250
G23  20968663.896   110191079.91708      -843.964          49.500    20968665.117    85863196.78208      -657.633          50.850    20968664.984    85863189.78707      -657.633          47.300    20968667.588    82285573.02409      -630.247          54.050
G26  24095113.525   126620673.40507     -3667.994          44.050    24095117.318    98665469.58206     -2858.177          41.900    24095117.255    98665462.57607     -2858.177          44.050    24095115.373    94554402.22307     -2738.952          46.000
G27  20282397.975   106584744.85208       669.581          52.900    20282400.555    83053065.57208       521.752          52.600    20282400.175    83053062.57008       521.752          52.700    20282398.806    79592525.17909       499.938          55.750
G30  25360349.480   133269540.93207       263.448          43.250    25360351.935   103846403.88906       205.283          39.550    25360351.516   103846399.89006       205.283          37.450    25360350.470    99519459.44307       196.572          44.150
R02  21111335.650   112654149.65208     -1562.411          52.850    21111335.518    87619896.73207     -1215.210          44.750    21111335.531    87619903.75107     -1215.210          44.850
R03  20739659.421   111021025.89908      2510.050          52.400    20739657.378    86349681.82607      1952.261          47.200    20739657.513    86349696.84407      1952.262          47.500
R04  23556968.275   126146511.77307      4604.091          45.650    23556966.238    98113931.95006      3580.961          39.000    23556966.325    98113934.95506      3580.961          38.900
R09  21422969.173   114397454.15608     -1348.664          49.800    21422967.059    88975781.78107     -1048.962          46.550    21422967.173    88975782.78107     -1048.962          47.000
R10  22692361.175   120963053.59807      2115.871          46.200
R16  23066032.586   123214579.23707     -4080.046          43.550    23066032.292    95833557.82106     -3173.371          37.150    23066031.482    95833551.80806     -3173.372          37.400
R17  22565451.250   120752302.70308     -3275.474          49.400    22565449.774    93918433.99506     -2547.589          41.600    22565449.821    93918436.00107     -2547.590          42.500
R18  19640867.312   104844305.06508     -1020.027          51.900    19640867.337    81545574.54708      -793.353          48.900    19640867.374    81545581.55008      -793.353          48.950
R19  20318495.254   108690268.12206      2061.396          40.400    20318492.772    84536875.94207      1603.307          45.650    20318493.095    84536876.94807      1603.308          46.700
E02  25076252.096   131776579.95948     -1818.459          50.650    25076255.170    98404590.03108     -1357.930          50.650    25076252.301   100971654.35508     -1393.369          51.650    25076253.504    99688123.93609     -1375.645          54.300
E04  26139307.590   137362996.13048      1003.561          49.700    26139310.181   102576284.51608       749.476          48.050    26139307.478   105252175.65308       769.059          49.050    26139308.611   103914226.33208       759.195          51.800
E09  25229025.787   132579425.90847      2935.236          47.800    25229029.514    99004128.34207      2192.000          43.600    25229027.148   101586835.32307      2249.026          45.850    25229028.099   100295482.07907      2220.465          47.850
E11  22711487.880   119349684.89748     -1792.900          50.800    22711487.670    89124773.32608     -1338.945          48.000    22711485.058    91449757.49208     -1373.913          49.400    22711486.235    90287268.65208     -1356.426          51.900
E19  27809760.427   146141295.64346     -1708.680          40.900    27809762.045   109131496.77006     -1275.788          38.200    27809759.319   111978397.42806     -1309.184          38.100    27809760.383   110554946.34206     -1292.434          41.600
E25  27595116.313   145013311.12147     -3257.779          44.800    27595120.650   108289179.27407     -2432.829          42.850    27595117.786   111114102.88607     -2496.355          45.100    27595118.893   109701639.32107     -2464.600          47.050
E30  24929854.250   131007261.32848       916.103          49.900    24929857.282    97830104.39307       684.066          47.950    24929854.520   100382186.83208       701.982          49.800    24929855.641    99106146.85908       692.982          51.950
E36  23259942.938   122231847.01348       525.536          52.550    23259946.760    91277056.26508       392.487          53.150    23259944.229    93658180.62909       402.714          54.850    23259945.335    92467618.69109       397.589          57.150
C02  40766695.023   212282876.85416        -3.500          37.300    40766687.574   164150570.49106        -2.937          40.700
C05  39534805.289   205868117.50007         2.307          42.700    39534800.111   159190246.56007         1.741          42.750
C06  40279613.648   209746524.63605      1467.972          35.800    40279607.910   162189298.17306      1134.789          41.350
C09  40542679.455   211116372.78507      2017.107          42.750    40542675.947   163248554.11106      1559.609          40.850
C13  39772422.364   207105449.54306      -935.576          40.500    39772423.241   160147077.95907      -723.551          42.050
C16  40141308.968   209026332.82306      1602.552          39.800    40141308.469   161632420.81706      1239.303          40.650
C20  23697192.327   123397501.41108      2570.906          51.750
C24  27063089.198   140924606.07007      1804.878          43.150
C26  24965574.442   130002293.10507      -477.383          47.500
C29  21572563.243   112334036.74308       700.834          51.900
C30  22955909.377   119537433.41108     -2140.018          52.100
J01  44346850.168   233044272.89307      -206.528          43.050    44346851.219   181592941.77806      -160.931          38.400    44346851.977   174026572.14106      -154.275          41.650
S23  38618416.101   202941130.52708         1.779          49.050
S36  38572819.055   202701584.88807         1.353          47.350
> 2021 01 02 00 02  0.0000000  0 45
G07  24998269.096   131366790.70607     -1088.821          42.900    24998268.967   102363742.26106      -848.428          41.200    24998268.763   102363731.25906      -848.428          39.950
G08  22318380.885   117283892.85208      2777.650          48.300    22318384.376    91390058.67807      2164.401          47.850    22318383.671    91390051.67508      2164.402          48.450    22318381.558    87582129.80108      2074.283          51.900
G10  20996335.635   110336502.17708      1433.358          53.150    20996338.539    85976510.46308      1116.903          51.800    20996338.739    85976497.45608      1116.903          53.150    20996335.882    82394141.45909      1070.417          54.700
G11  24723192.986   129921262.81007      3605.886          43.400                                                                    24723193.162   101237355.16505      2809.783          34.600
G13  25078912.959   131790594.36706     -1442.200          40.900                                                                    25078912.778   102693971.74206     -1123.792          36.900
G15  23713235.420   124613904.18707      -595.330          45.700    23713236.307    97101752.31006      -463.894          41.500    23713235.925    97101755.30607      -463.895          45.800
G16  22055833.737   115904193.39308     -2815.380          50.400                                                                    22055833.941    90314941.16907     -2193.802          44.350
G20  20920618.525   109938604.85508     -1122.205          49.000                                                                    20920618.732    85666455.65607      -874.444          46.550
G21  24291563.217   127653009.97007      2812.893          44.550                                                                    24291564.298    99469890.65706      2191.865          36.900
G23  20973533.453   110216669.68108      -863.026          49.100    20973534.636    85883136.87708      -672.487          51.750    20973534.501    85883129.88007      -672.486          47.800    20973537.109    82304682.31508      -644.350          53.900
G26  24116057.196   126730733.27707     -3670.232          43.250    24116060.978    98751230.52707     -2859.920          43.150    24116060.912    98751223.51307     -2859.921          42.950    24116059.022    94636589.83007     -2740.796          45.950
G27  20278617.331   106564877.49708       654.043          52.300    20278619.888    83037584.50808       509.643          52.950    20278619.508    83037581.50708       509.644          52.200    20278618.145    79577689.19809       488.464          55.650
G30  25358893.520   133261889.74207       246.047          42.400    25358895.953   103840441.93006       191.724          38.300    25358895.523   103840437.91505       191.725          35.550    25358894.500    99513745.93007       183.708          43.950
R02  21120188.762   112701391.51208     -1587.681          52.400    21120188.604    87656640.40507     -1234.865          44.950    21120188.619    87656647.42807     -1234.863          44.500
R03  20725651.971   110946043.08508      2487.914          52.400    20725649.956    86291361.87207      1935.043          47.350    20725650.089    86291376.88507      1935.043          47.650
R04  23531176.694   126008399.01807      4602.346          45.200    23531174.649    98006510.93606      3579.605          39.750    23531174.729    98006513.94006      3579.605          39.650
R09  21430614.334   114438278.93608     -1373.893          48.950    21430612.252    89007534.37607     -1068.586          46.750    21430612.365    89007535.37407     -1068.588          47.200
R10  22680515.145   120899907.11207      2092.905          44.900
R16  23088962.056   123337064.26907     -4086.822          42.650    23088961.797    95928823.94806     -3178.638          37.000    23088960.970    95928817.92706     -3178.638          37.850
R17  22583824.795   120850623.17908     -3280.179          48.950    22583823.329    93994905.43106     -2551.253          41.350    22583823.377    93994907.45107     -2551.253          43.050
R18  19646633.634   104875085.99308     -1033.066          51.450    19646633.672    81569515.23808      -803.496          48.950    19646633.709    81569522.24408      -803.496          48.950
R19  20306960.216   108628563.39606      2051.129          40.350    20306957.738    84488883.37607      1595.321          45.800    20306958.063    84488884.37707      1595.321          46.850
E02  25086664.858   131831299.53248     -1830.463          50.650    25086667.933    98445452.07508     -1366.825          50.600    25086665.075   101013582.36808     -1402.497          51.000    25086666.272    99729518.96409     -1384.659          54.050
E04  26133613.480   137333073.63948       990.258          49.650    26133616.060   102553939.86207       739.587          47.800    26133613.355   105229248.09508       758.843          48.550    26133614.492   103891590.22208       749.192          51.400
E09  25212276.538   132491408.23947      2931.668          47.150    25212280.248    98938400.92607      2189.275          43.650    25212277.881   101519393.25707      2246.411          45.750    25212278.827   100228897.33007      2217.929          47.850
E11  22721734.283   119403530.21148     -1797.427          50.550    22721734.053    89164982.52707     -1342.183          47.800    22721731.447    91491015.63108     -1377.211          49.050    22721732.620    90328002.32008     -1359.724          51.700
E19  27819543.931   146192708.51746     -1719.801          40.250    27819545.543   109169889.55606     -1284.279          38.200    27819542.821   112017791.78206     -1317.939          38.250    27819543.880   110593839.90906     -1301.099          41.650
E25  27613714.824   145111047.11147     -3258.823          44.550    27613719.129   108362163.97407     -2433.428          43.750    27613716.270   111188991.55907     -2496.955          43.600    27613717.358   109775576.00907     -2465.195          46.900
E30  24924661.975   130979975.91248       901.930          49.750    24924665.000    97809728.95307       673.642          47.750    24924662.275   100361279.86408       691.248          49.100    24924663.365    99085505.65208       682.425          51.650
E36  23256959.551   122216169.37548       518.665          51.850    23256963.360    91265348.98608       387.351          53.050    23256960.841    93646167.94209       397.509          54.350    23256961.938    92455758.70709       392.426          56.900
C02  40766713.281   212282972.00106        -4.034          37.250    40766705.847   164150644.09206        -2.833          40.150
C05  39534788.931   205868032.57107         2.536          42.700    39534783.731   159190180.95807         1.735          42.400
C06  40271166.762   209702539.76305      1463.426          35.450    40271161.060   162155286.30106      1131.905          40.300
C09  40531060.339   211055869.21107      2015.728          42.700    40531056.826   163201768.95506      1558.736          40.850
C13  39777808.593   207133497.22606      -934.936          40.050    39777809.459   160168766.23206      -722.898          41.650
C16  40132084.529   208978298.91506      1598.621          40.200    40132084.005   161595278.00906      1236.234          39.900
C20  23682410.424   123320528.28808      2559.751          51.600
C24  27052725.663   140870640.53207      1792.048          43.400
C26  24968369.309   130016844.66607      -493.455          46.850
C29  21568551.786   112313148.14608       690.800          51.900
C30  22968257.343   119601732.50408     -2147.376          51.750
J01  44348025.757   233050450.84607      -206.110          42.450    44348026.765   181597755.77606      -160.605          38.350    44348027.552   174031185.61606      -154.076          41.350
S23  38618402.054   202941057.37808         2.182          48.700
S26  39638883.603   208303734.03716       -72.331          41.350
S36  38572808.684   202701529.62007         1.695          46.900
> 2021 01 02 00 02 30.0000000  0 44
G07  25004526.642   131399674.32607     -1103.223          42.050    25004526.533   102389365.85406      -859.652          40.250    25004526.330   102389354.84006      -859.654          38.500
G08  22302544.989   117200674.84108      2770.322          49.500    22302548.500    91325213.49108      2158.692          49.900    22302547.790    91325206.48308      2158.691          49.650    22302545.688    87519986.49208      2068.821          51.800
G10  20988201.394   110293756.60708      1416.459          52.900    20988204.303    85943202.24308      1103.734          52.050    20988204.504    85943189.23708      1103.734          52.900    20988201.661    82362221.09009      1057.791          54.950
G11  24702608.813   129813092.66506      3605.645          41.700                                                                    24702609.003   101153066.82906      2809.597          38.000
G13  25087194.482   131834114.07306     -1459.372          40.900                                                                    25087194.252   102727883.23605     -1137.168          35.550
G15  23716690.455   124632060.42307      -615.067          45.350    23716691.323    97115900.02807      -479.274          42.100    23716690.941    97115903.02607      -479.274          45.200
G16  22071942.668   115988846.39108     -2828.003          49.900                                                                    22071942.875    90380904.55307     -2203.637          45.400
G20  20927073.172   109972524.26108     -1139.050          48.850                                                                    20927073.374    85692886.36407      -887.570          47.050
G21  24275515.671   127568679.66107      2809.283          44.900                                                                    24275516.692    99404178.76706      2189.054          37.700
G23  20978512.849   110242836.53808      -881.463          48.250    20978514.005    85903526.66108      -686.854          51.950    20978513.867    85903519.65508      -686.853          48.250    20978516.474    82324222.52209      -658.135          54.250
G26  24137016.771   126840876.57007     -3672.481          43.950    24137020.552    98837056.43407     -2861.676          43.700    24137020.488    98837049.42707     -2861.676          43.500    24137018.592    94718839.68407     -2742.348          45.400
G27  20274926.673   106545482.92708       638.953          52.850    20274929.222    83022471.86208       497.885          53.400    20274928.841    83022468.86008       497.885          52.700    20274927.476    79563206.24409       477.208          56.000
G30  25357538.502   133254769.09006       229.206          41.900    25357540.913   103834893.38606       178.604          39.650    25357540.473   103834889.38105       178.605          35.150    25357539.468    99508428.59107       170.966          44.100
R02  21129185.164   112749397.95408     -1612.460          52.400    21129184.983    87693978.74407     -1254.137          44.950    21129185.002    87693985.76407     -1254.136          45.000
R03  20711770.807   110871736.23808      2465.964          52.650    20711768.824    86233567.65807      1917.970          47.550    20711768.956    86233582.66407      1917.971          47.900
R04  23505397.079   125870350.38207      4600.976          46.200    23505395.015    97899139.80306      3578.538          38.950    23505395.091    97899142.81906      3578.537          38.700
R09  21438402.051   114479865.10908     -1398.420          49.250    21438400.006    89039879.18607     -1087.659          47.050    21438400.117    89039880.18207     -1087.659          47.750
R10  22668799.618   120837456.84107      2070.513          44.300
R16  23111930.051   123459755.24607     -4092.380          42.450    23111929.824    96024250.26706     -3182.962          37.000    23111928.986    96024244.25006     -3182.961          37.550
R17  22602226.256   120949093.13408     -3284.360          48.100    22602224.792    94071493.16806     -2554.505          41.800    22602224.841    94071495.18807     -2554.504          42.300
R18  19652474.625   104906265.58208     -1045.550          51.200    19652474.664    81593766.02508      -813.205          48.900    19652474.701    81593773.03508      -813.205          48.800
R19  20295483.207   108567169.18106      2041.524          39.350    20295480.727    84441132.33407      1587.852          46.100    20295481.058    84441133.33707      1587.851          47.150
E02  25097147.492   131886386.16748     -1842.036          50.300    25097150.583    98486588.18508     -1375.404          50.750    25097147.733   101055791.59808     -1411.320          51.000    25097148.923    99771191.63308     -1393.322          53.850
E04  26127997.902   137303563.67948       977.103          49.650    26128000.477   102531903.22407       729.840          47.950    26127997.773   105206636.59508       748.779          48.600    26127998.915   103869266.15208       739.325          51.250
E09  25195549.357   132403506.21448      2928.407          48.250    25195553.079    98872759.76807      2187.034          43.800    25195550.716   101452039.74407      2243.990          45.750    25195551.658   100162400.00307      2215.454          47.750
E11  22732007.514   119457516.29248     -1801.756          50.250    22732007.287    89205296.79708     -1345.352          48.300    22732004.684    91532381.57108     -1380.363          49.000    22732005.853    90368842.42808     -1362.883          51.650
E19  27829394.519   146244473.78946     -1730.895          40.850    27829396.139   109208545.45606     -1292.557          38.500    27829393.415   112057456.08606     -1326.352          38.500    27829394.469   110633000.01806     -1309.488          41.500
E25  27632319.280   145208814.09547     -3258.924          44.550    27632323.580   108435171.78707     -2433.541          43.350    27632320.702   111263903.92307     -2497.112          43.650    27632321.794   109849536.09707     -2465.292          46.350
E30  24919552.023   130953122.89148       888.302          49.800    24919555.037    97789676.34607       663.383          47.900    24919552.347   100340704.15008       680.702          49.150    24919553.424    99065191.48908       672.069          51.550
E36  23254017.200   122200707.25148       512.179          52.050    23254021.014    91253802.59608       382.519          53.250    23254018.503    93634320.34209       392.514          54.300    23254019.593    92444061.71109       387.514          56.750
C02  40766731.874   212283068.76806        -2.844          37.900    40766724.442   164150718.93406        -2.025          39.850
C05  39534773.235   205867950.79007         3.069          42.950    39534768.034   159190117.71007         2.414          42.250
C06  40262743.440   209658677.51305      1460.507          34.850    40262737.767   162121369.23906      1129.408          40.950
C09  40519450.354   210995413.02607      2014.511          43.100    40519446.849   163155020.40306      1558.000          40.650
C13  39783190.980   207161524.68306      -933.629          40.800    39783191.854   160190438.80806      -721.743          41.550
C16  40122884.969   208930394.41506      1595.277          40.500    40122884.427   161558235.22506      1233.460          39.850
C20  23667694.531   123243898.99508      2549.025          51.850
C24  27042437.934   140817069.06407      1779.406          43.300
C26  24971257.874   130031883.74607      -508.988          47.800
C29  21564599.535   112292567.74708       681.232          52.550
C30  22980648.968   119666259.14708     -2154.319          52.150
J01  44349201.987   233056631.88907      -205.768          42.600    44349202.996   181602572.18806      -160.339          38.850    44349203.793   174035801.31406      -153.478          41.800
S23  38618387.868   202940983.39208         2.867          48.800
S36  38572797.347   202701470.03607         2.398          47.100
> 2021 01 02 00 03  0.0000000  0 44
G07  25010871.242   131433015.22907     -1118.484          44.400    25010871.168   102415345.71406      -871.547          40.750    25010870.972   102415334.70506      -871.547          39.050
G08  22286755.543   117117700.92907      2762.204          47.550    22286759.076    91260558.51608      2152.369          48.800    22286758.372    91260551.50307      2152.369          47.500    22286756.248    87458025.47108      2062.588          52.100
G10  20980168.199   110251542.01008      1398.654          53.400    20980171.116    85910307.75808      1089.861          52.050    20980171.318    85910294.75308      1089.861          53.600    20980168.488    82330697.21609      1044.431          54.850
G11  24682029.465   129704947.85607      3604.851          43.350                                                                    24682029.680   101068798.22305      2808.977          35.800
G13  25095577.074   131878164.60707     -1476.755          42.250                                                                    25095576.830   102762208.28605     -1150.721          35.500
G15  23720262.302   124650830.65207      -635.460          46.500    23720263.154    97130526.20206      -495.162          41.950    23720262.771    97130529.20207      -495.161          46.800
G16  22088127.927   116073900.45208     -2841.400          50.000                                                                    22088128.146    90447180.43707     -2214.078          43.850
G20  20933628.421   110006972.37008     -1156.697          49.650                                                                    20933628.617    85719729.05807      -901.322          45.650
G21  24259493.170   127484480.96307      2804.805          45.550                                                                    24259494.121    99338569.44406      2185.564          38.500
G23  20983601.980   110269580.07408      -900.539          48.450    20983603.120    85924365.78608      -701.718          51.600    20983602.979    85924358.77407      -701.718          47.700    20983605.588    82344193.35209      -672.582          54.000
G26  24157991.863   126951101.40107     -3675.085          44.200    24157995.657    98922945.92507     -2863.701          42.850    24157995.598    98922938.91807     -2863.701          43.650    24157993.675    94801150.42707     -2744.388          45.850
G27  20271326.334   106526562.95408       623.084          52.850    20271328.873    83007729.02008       485.519          53.300    20271328.493    83007726.02008       485.519          52.950    20271327.127    79549077.68909       465.300          55.900
G30  25356284.613   133248179.84407       211.268          43.300    25356287.031   103829758.89106       164.622          40.500    25356286.578   103829754.89606       164.623          36.250    25356285.586    99503508.04007       157.642          42.800
R02  21138324.515   112798167.24008     -1637.852          51.300    21138324.315    87731910.40707     -1273.886          44.850    21138324.339    87731917.42507     -1273.885          44.400
R03  20698016.641   110798109.29008      2443.310          52.350    20698014.667    86176302.27807      1900.351          47.350    20698014.798    86176317.28807      1900.350          47.700
R04  23479630.392   125732370.89807      4598.527          45.050    23479628.310    97791822.43506      3576.633          39.700    23479628.386    97791825.45706      3576.632          39.700
R09  21446332.114   114522211.24008     -1423.752          49.400    21446330.121    89072815.03907     -1107.366          46.900    21446330.228    89072816.02707     -1107.368          47.350
R10  22657215.506   120775707.29707      2046.987          44.350
R16  23134935.909   123582648.45707     -4099.371          42.350    23134935.716    96119833.87706     -3188.399          37.050    23134934.865    96119827.85706     -3188.401          37.550
R17  22620655.650   121047712.52808     -3289.255          48.950    22620654.194    94148197.12906     -2558.309          41.100    22620654.240    94148199.14406     -2558.309          40.900
R18  19658390.491   104937844.79308     -1058.843          50.950    19658390.524    81618327.61808      -823.545          49.000    19658390.563    81618334.63008      -823.545          48.400
R19  20284064.637   108506087.50506      2030.975          39.100    20284062.167    84393624.35407      1579.647          46.000    20284062.497    84393625.36007      1579.647          46.950
E02  25107699.850   131941839.21848     -1854.105          51.300    25107702.958    98527997.91608     -1384.634          50.750    25107700.112   101098281.57808     -1420.691          51.150    25107701.301    99813141.48908     -1402.670          53.650
E04  26122461.135   137274467.94948       963.397          50.200    26122463.694   102510175.93507       719.304          47.750    26122460.990   105184342.49708       738.119          48.950    26122462.144   103847255.45908       728.715          51.100
E09  25178844.689   132315722.57848      2924.504          48.750    25178848.411    98807207.04207      2183.890          43.750    25178846.052   101384776.95807      2240.811          46.050    25178846.997   100095992.24607      2212.297          47.550
E11  22742307.573   119511643.47748     -1806.000          50.150    22742307.341    89245716.46008     -1348.707          48.300    22742304.745    91573855.66108     -1383.891          49.250    22742305.904    90409789.30308     -1366.291          51.500
E19  27839312.074   146296590.89946     -1742.953          41.550    27839313.694   109247464.07906     -1301.527          38.750    27839310.981   112097389.97806     -1335.362          38.950    27839312.025   110672426.27306     -1318.519          41.700
E25  27650929.466   145306611.12847     -3259.971          44.650    27650933.777   108508202.01307     -2434.449          42.850    27650930.876   111338839.28507     -2497.993          44.300    27650931.975   109923518.89007     -2466.184          46.200
E30  24914524.658   130926703.86348       873.786          50.250    24914527.638    97769947.83907       652.498          47.800    24914524.980   100320460.98108       669.593          49.300    24914526.058    99045205.65508       661.016          51.250
E36  23251116.009   122185461.43048       504.951          52.500    23251119.834    91242417.72408       377.081          53.200    23251117.330    93622638.47309       386.941          54.500    23251118.415    92432528.34309       381.998          56.600
C02  40766750.973   212283168.95716        -2.970          37.850    40766743.421   164150795.67006        -2.199          40.000
C05  39534758.282   205867872.89007         2.810          42.800    39534753.079   159190057.46907         2.351          42.600
C06  40254343.889   209614939.09105      1456.274          34.700    40254338.240   162087547.94606      1126.057          41.700
C09  40507849.694   210935005.43107      2012.954          42.950    40507846.182   163108309.44506      1556.560          40.650
C13  39788569.631   207189532.82406      -932.660          40.700    39788570.503   160212096.48407      -721.306          42.100
C16  40113710.503   208882620.59406      1590.600          40.400    40113709.958   161521293.47606      1230.048          40.350
C20  23653045.221   123167616.39408      2537.291          51.650
C24  27032226.373   140763894.04407      1766.436          42.800
C26  24974240.090   130047410.43407      -525.288          46.600
C29  21560706.795   112272297.00808       670.900          51.900
C30  22993084.335   119731013.61708     -2161.844          51.650
J01  44350378.887   233062816.59707      -205.697          43.050    44350379.882   181607391.43906      -160.284          38.850    44350380.700   174040419.78506      -153.761          41.600
S23  38618373.681   202940908.84308         2.970          48.950
S36  38572786.676   202701414.25707         2.485          47.400
> 2021 01 02 00 03 30.0000000  0 44
G07  25017302.600   131466812.22907     -1134.223          43.850    25017302.551   102441681.02206      -883.812          39.550    25017302.358   102441670.00506      -883.812          37.250
